[{"name": "Hammered", "longitude": "77.594989", "latitude": "12.986555", "urls": "https://www.dineout.co.in/bangalore/hammered-cunningham-road-central-bangalore-23017", "rating": "4.3/5", "location": "10, Ali Askar Road, Cunningham Road, Central Bangalore, 560051"}, {"name": "Koramangala Social", "longitude": "77.614167", "latitude": "12.935421", "urls": "https://www.dineout.co.in/bangalore/koramangala-social-koramangala-south-bangalore-27827", "rating": "4.4/5", "location": "118, Koramangala Industrial Area, 7th Block, Koramangala, South Bangalore, 560095"}, {"name": "The Biere Club", "longitude": "77.59755", "latitude": "12.97093", "urls": "https://www.dineout.co.in/bangalore/the-biere-club-vittal-mallya-road-central-bangalore-1168", "rating": "4.4/5", "location": "20/2, 1st & 2nd Floor, Vittal Mallya Road, Central Bangalore, 560001"}, {"name": "Cafe Azzure", "longitude": "77.607576", "latitude": "12.975021", "urls": "https://www.dineout.co.in/bangalore/cafe-azzure-mg-road-central-bangalore-29533", "rating": "4.3/5", "location": "52, Haridevpur, Shanthala Nagar, MG Road, Central Bangalore, 560010"}, {"name": "Steaming Mugs", "longitude": "77.580111", "latitude": "12.953415", "urls": "https://www.dineout.co.in/bangalore/steaming-mugs-basavanagudi-south-bangalore-31063", "rating": "4.6/5", "location": "166/A, 2nd Floor, R.V Road, V.V Puram, Basavanagudi, South Bangalore, 560004"}, {"name": "Rasovara - The Royal Kitchen", "longitude": "77.596209", "latitude": "12.971722", "urls": "https://www.dineout.co.in/bangalore/rasovara-the-royal-kitchen-vittal-mallya-road-central-bangalore-18457", "rating": "4.4/5", "location": "UB City, 203, 2nd Floor, 24, Vittal Mallya Road, Central Bangalore, 560001"}, {"name": "Misu", "longitude": "77.600625", "latitude": "12.970622", "urls": "https://www.dineout.co.in/bangalore/misu-st-marks-road-central-bangalore-32654", "rating": "4.4/5", "location": "Halcyon Complex, 4th Floor, Building 9, St. Marks Road, Central Bangalore, 560001"}, {"name": "Fava", "longitude": "77.596234", "latitude": "12.972256", "urls": "https://www.dineout.co.in/bangalore/fava-vittal-mallya-road-central-bangalore-1019", "rating": "4.5/5", "location": "UB City, 203, 2nd Floor, 24, Vittal Mallya Road, Central Bangalore, 560001"}, {"name": "The Open Box", "longitude": "77.600581", "latitude": "12.970658", "urls": "https://www.dineout.co.in/bangalore/the-open-box-st-marks-road-central-bangalore-20201", "rating": "4.2/5", "location": "Halcyon Complex, 9, 4th Floor, St. Marks Road, Central Bangalore, 560001"}, {"name": "Smoke House Deli", "longitude": "77.598401", "latitude": "12.97162", "urls": "https://www.dineout.co.in/bangalore/smoke-house-deli-lavelle-road-central-bangalore-1050", "rating": "4.4/5", "location": "52 & 53, Ground Floor, Lavelle Road, Central Bangalore, 560001"}]